%time,field.t,field.cs1.x,field.cs1.y,field.cs1.theta,field.cs1.speed,field.cs1.acceleration,field.cs1.id,field.cs2.x,field.cs2.y,field.cs2.theta,field.cs2.speed,field.cs2.acceleration,field.cs2.id
1523727914437423944,0.0,-76.9432754517,-3.5,0.000135882277391,13.8888893127,7.0,1,-3.5,76.9432373047,4.7125248909,13.8888893127,7.0,2
1523727914537617921,8.39233398438e-05,-75.5516586304,-3.49981093407,0.0348280146718,13.8888893127,7.0,1,-3.49981093407,75.5516204834,4.74721717834,13.8888893127,7.0,2
1523727914638823032,0.100280046463,-74.1624221802,-3.45140695572,0.0152205862105,13.8888893127,7.0,1,-3.45140695572,74.1623840332,4.72762966156,13.8888893127,7.0,2
1523727914739125013,0.200366020203,-72.770149231,-3.43021416664,0.0413274466991,13.8888893127,7.0,1,-3.43018603325,72.770111084,4.75370597839,13.8888893127,7.0,2
1523727914837474107,0.300621032715,-71.3865432739,-3.37300038338,0.011237080209,13.8888893127,7.0,1,-3.37298679352,71.386505127,4.7236289978,13.8888893127,7.0,2
1523727914937462091,0.400326013565,-69.9987030029,-3.35740447044,0.0367342978716,13.8888893127,7.0,1,-3.35738682747,69.9986572266,4.74911546707,13.8888893127,7.0,2
1523727915039052963,0.500257015228,-68.6080551147,-3.30629706383,0.00121609168127,13.8888893127,7.0,1,-3.30629038811,68.6080169678,4.71364116669,13.8888893127,7.0,2
1523727915139170885,0.600450992584,-67.2183761597,-3.30460715294,0.0302382484078,13.8888893127,7.0,1,-3.30455064774,67.2183380127,4.74262046814,13.8888893127,7.0,2
1523727915238032102,0.700507879257,-65.831817627,-3.26266717911,-0.00881471391767,13.8888893127,7.0,1,-3.26261997223,65.83177948,4.70358657837,13.8888893127,7.0,2
1523727915338331937,0.800385951996,-64.443687439,-3.27490353584,0.0257847774774,13.8888893127,7.0,1,-3.27483892441,64.443649292,4.73815250397,13.8888893127,7.0,2
1523727915439294099,0.900335073471,-63.0540657043,-3.23906445503,-0.0167835112661,13.8888893127,7.0,1,-3.2390294075,63.0540275574,4.69562149048,13.8888893127,7.0,2
1523727915538655996,1.00042104721,-61.663318634,-3.26240825653,0.0242529381067,13.8888893127,7.0,1,-3.26235103607,61.6632766724,4.7366104126,13.8888893127,7.0,2
1523727915638720035,1.10056900978,-60.2762718201,-3.22876167297,-0.0227338559926,13.8888893127,7.0,1,-3.22874808311,60.2762260437,4.68966913223,13.8888893127,7.0,2
1523727915737983942,1.20046591759,-58.8889465332,-3.26030635834,0.0253517627716,13.8888893127,7.0,1,-3.26027321815,58.8889045715,4.73771762848,13.8888893127,7.0,2
1523727915838290929,1.30037903786,-57.5007133484,-3.22510457039,-0.0274574812502,13.8888893127,7.0,1,-3.2251033783,57.5006713867,4.68496179581,13.8888893127,7.0,2
1523727915938541889,1.40036392212,-56.1119346619,-3.26324677467,0.0283500030637,13.8888893127,7.0,1,-3.26320338249,56.1118888855,4.74070692062,13.8888893127,7.0,2
1523727916037662982,1.50039386749,-54.7232513428,-3.22386693954,-0.0319485999644,13.8888893127,7.0,1,-3.22386813164,54.7232055664,4.68045425415,13.8888893127,7.0,2
1523727916138694047,1.60041904449,-53.3361434937,-3.26819825172,0.0327908881009,13.8888893127,7.0,1,-3.26818037033,53.3360939026,4.74513196945,13.8888893127,7.0,2
1523727916238641977,1.70034193993,-51.9459457397,-3.22259616852,-0.036879491061,13.8888893127,7.0,1,-3.22264480591,51.9458961487,4.67554569244,13.8888893127,7.0,2
1523727916337937116,1.8004899025,-50.5581703186,-3.27379989624,0.0386447869241,13.8888893127,7.0,1,-3.27379798889,50.5581169128,4.75100278854,13.8888893127,7.0,2
1523727916437454938,1.9004778862,-49.1730766296,-3.22024679184,-0.0429655984044,13.8888893127,7.0,1,-3.22028779984,49.1730232239,4.66946315765,13.8888893127,7.0,2
1523727916537750959,2.00027894974,-47.7849845886,-3.27992367744,0.0461336895823,13.8888893127,7.0,1,-3.27990984917,47.7849311829,4.75847625732,13.8888893127,7.0,2
1523727916638403892,2.1003139019,-46.3964347839,-3.21581935883,-0.0511054955423,13.8888893127,7.0,1,-3.21586942673,46.3963775635,4.66135406494,13.8888893127,7.0,2
1523727916738686084,2.20039606094,-45.0075454712,-3.28686094284,0.0561255402863,13.8888893127,7.0,1,-3.28681325912,45.0074806213,4.76843261719,13.8888893127,7.0,2
1523727916838084936,2.30052685738,-43.6225204468,-3.20904397964,-0.0627713724971,13.8888893127,7.0,1,-3.20911002159,43.6224517822,4.64969491959,13.8888893127,7.0,2
1523727916938819885,2.40040588379,-42.2362709045,-3.29617547989,0.0707477703691,13.8888893127,7.0,1,-3.29613375664,42.2361946106,4.78299713135,13.8888893127,7.0,2
1523727917038706064,2.50041294098,-40.850605011,-3.19797897339,-0.0813671797514,13.8888893127,7.0,1,-3.1981306076,40.8505134583,4.63118982315,13.8888893127,7.0,2
1523727917139477968,2.60043096542,-39.4622268677,-3.31119728088,0.0810229480267,13.8888893127,7.0,1,-3.31111550331,39.4621162415,4.79358005524,13.8888893127,7.0,2
1523727917238905906,2.70072603226,-38.0812034607,-3.1990571022,-0.0805024728179,13.8888893127,7.0,1,-3.19874310493,38.081111908,4.63205480576,13.8888893127,7.0,2
1523727917337783098,2.80048704147,-36.6976966858,-3.3106739521,0.0813062936068,13.8888893127,7.0,1,-3.3101272583,36.6975898743,4.79386329651,13.8888893127,7.0,2
1523727917438566923,2.90042304993,-35.314491272,-3.19796204567,-0.0804781541228,13.8888893127,7.0,1,-3.19718265533,35.3143997192,4.63207912445,13.8888893127,7.0,2
1523727917538921117,3.00034403801,-33.927898407,-3.30979418755,0.0816915556788,13.8888893127,7.0,1,-3.30878138542,33.9277877808,4.79424858093,13.8888893127,7.0,2
1523727917638119935,3.10050296783,-32.5439453125,-3.19648480415,-0.0801851600409,13.8888893127,7.0,1,-3.1952393055,32.5438537598,4.63237190247,13.8888893127,7.0,2
1523727917738404989,3.20048093796,-31.1594219208,-3.307741642,0.0817386507988,13.8888893127,7.0,1,-3.30626320839,31.1593132019,4.79429578781,13.8888893127,7.0,2
1523727917838648080,3.30048799515,-29.7745723724,-3.19429326057,-0.0802434533834,13.8888893127,7.0,1,-3.19258189201,29.7744846344,4.63231372833,13.8888893127,7.0,2
1523727917938775062,3.40053105354,-28.3908348083,-3.30556797981,0.0815892517567,13.8888893127,7.0,1,-3.30362415314,28.3907260895,4.79414653778,13.8888893127,7.0,2
1523727918037486076,3.50048184395,-27.007976532,-3.1924905777,-0.080158136785,13.8888893127,7.0,1,-3.19031405449,27.0078868866,4.63239908218,13.8888893127,7.0,2
1523727918137418031,3.60037994385,-25.6249885559,-3.303586483,0.0815857797861,13.8888893127,7.0,1,-3.30117750168,25.624879837,4.79414272308,13.8888893127,7.0,2
1523727918237524032,3.70027589798,-24.2407588959,-3.19040203094,-0.0803218111396,13.8888893127,7.0,1,-3.18776011467,24.2406711578,4.63223552704,13.8888893127,7.0,2
1523727918337641000,3.80027294159,-22.8563079834,-3.30184340477,0.081595428288,13.8888893127,7.0,1,-3.29896855354,22.8561992645,4.79415273666,13.8888893127,7.0,2
1523727918438105106,3.90027594566,-21.4717769623,-3.18862080574,-0.0803476795554,13.8888893127,7.0,1,-3.18551301956,21.4716873169,4.63220930099,13.8888893127,7.0,2
1523727918537658929,4.00029492378,-20.0876865387,-3.3000690937,0.0815274938941,13.8888893127,7.0,1,-3.29672861099,20.0875797272,4.79408454895,13.8888893127,7.0,2
1523727918637531042,4.10027194023,-18.7036590576,-3.18698215485,-0.0803557857871,13.8888893127,7.0,1,-3.1834089756,18.7035713196,4.63220119476,13.8888893127,7.0,2
1523727918737998962,4.20025396347,-17.3174953461,-3.29860901833,0.0817621946335,13.8888893127,7.0,1,-3.29480242729,17.3173885345,4.79431915283,13.8888893127,7.0,2
1523727918837454080,4.30038094521,-15.935128212,-3.18533110619,-0.0799299925566,13.8888893127,7.0,1,-3.18129205704,15.9350404739,4.63262701035,13.8888893127,7.0,2
1523727918938322067,4.40024495125,-14.5492324829,-3.29634213448,0.0821509286761,13.8888893127,7.0,1,-3.29207015038,14.5491256714,4.79470825195,13.8888893127,7.0,2
1523727919038964986,4.5003490448,-13.1639194489,-3.18228077888,-0.0798910036683,13.8888893127,7.0,1,-3.17777585983,13.1638326645,4.63266611099,13.8888893127,7.0,2
1523727919139045000,4.60042905807,-11.7763195038,-3.29337406158,0.0823887214065,13.8888893127,7.0,1,-3.28863573074,11.7762136459,4.79494571686,13.8888893127,7.0,2
1523727919238115072,4.70065593719,-10.3945360184,-3.17927241325,-0.0792436376214,13.8888893127,7.0,1,-3.1743016243,10.394449234,4.63331365585,13.8888893127,7.0,2
1523727919338185071,4.80048298836,-9.01222229004,-3.28904175758,0.082409568131,13.8888893127,7.0,1,-3.28383851051,9.01211643219,4.79496669769,13.8888893127,7.0,2
1523727919438505887,4.90032291412,-7.62583017349,-3.17453050613,0.101705603302,13.8888893127,7.0,1,-3.16909408569,7.6257443428,4.63279533386,13.8888893127,7.0,2
1523727919539472103,5.00048303604,-6.24127340317,-3.03322577477,0.263951361179,13.8888893127,7.0,1,-3.27975177765,6.2384018898,4.79504108429,13.8888893127,7.0,2
1523727919638577938,5.10068893433,-4.90351486206,-2.67168712616,0.345198363066,13.8888893127,7.0,1,-3.1653470993,4.857380867,4.63349437714,13.8888893127,7.0,2
1523727919737914085,5.20046305656,-3.5977101326,-2.2021241188,0.506968140602,13.8888893127,7.0,1,-3.27471327782,3.47403168678,4.79526376724,13.8888893127,7.0,2
1523727919837619066,5.30037498474,-2.38392710686,-1.52800738811,0.579134047031,13.8888893127,7.0,1,-3.15977978706,2.09037947655,4.6334066391,13.8888893127,7.0,2
1523727919938581943,5.40034103394,-1.22157406807,-0.767908096313,0.741038143635,13.8888893127,7.0,1,-3.26935791969,0.705891132355,4.79531049728,13.8888893127,7.0,2
1523727920038980007,5.50033593178,-0.195409223437,0.171027585864,0.798222541809,13.8888893127,7.0,1,-3.15415382385,-0.680233895779,4.63316345215,13.8888893127,7.0,2
1523727920138829946,5.60048103333,0.773503601551,1.1651160717,0.960050582886,13.8888893127,7.0,1,-3.2640171051,-2.06404519081,4.79499149323,13.8888893127,7.0,2
1523727920238609075,5.70042896271,1.57016789913,2.30315995216,1.02801787853,13.8888893127,7.0,1,-3.14939808846,-3.44848775864,4.63304519653,13.8888893127,7.0,2
1523727920338366031,5.80044984818,2.28739643097,3.49217438698,1.18989491463,13.8888893127,7.0,1,-3.25945806503,-4.83270549774,4.79492235184,13.8888893127,7.0,2
1523727920438498020,5.90042805672,2.80369997025,4.78145551682,1.30756616592,13.8888893127,7.0,1,-3.14496421814,-6.21679592133,4.63301801682,13.8888893127,7.0,2
1523727920538440942,6.00042295456,3.16522741318,6.12301397324,1.42311525345,13.8888893127,7.0,1,-3.25512766838,-7.60183906555,4.7949924469,13.8888893127,7.0,2
1523727920638326883,6.10046100616,3.36939930916,7.49546670914,1.47853016853,13.8888893127,7.0,1,-3.14064145088,-8.98466396332,4.63323497772,13.8888893127,7.0,2
1523727920737471103,6.20036506653,3.49730610847,8.87781047821,1.54764032364,13.8888893127,7.0,1,-3.25041174889,-10.3685665131,4.79507303238,13.8888893127,7.0,2
1523727920837701082,6.30031895638,3.52944803238,10.2656202316,1.56038331985,13.8888893127,7.0,1,-3.13576221466,-11.7520055771,4.63324308395,13.8888893127,7.0,2
1523727920937386989,6.40026807785,3.54390883446,11.6543064117,1.60112690926,13.8888893127,7.0,1,-3.24556255341,-13.1364202499,4.79514026642,13.8888893127,7.0,2
1523727921037693023,6.50025892258,3.50176334381,13.0434188843,1.58804857731,13.8888893127,7.0,1,-3.13068962097,-14.5214166641,4.63312768936,13.8888893127,7.0,2
1523727921139938116,6.60032105446,3.47772550583,14.4365997314,1.61518490314,13.8888893127,7.0,1,-3.24101614952,-15.9104290009,4.79556417465,13.8888893127,7.0,2
1523727921238497018,6.70064496994,3.41619968414,15.8217601776,1.58815491199,13.8888893127,7.0,1,-3.12582421303,-17.2921619415,4.63392734528,13.8888893127,7.0,2
1523727921338154077,6.80047488213,3.39211988449,17.2088165283,1.61198329926,13.8888893127,7.0,1,-3.2345597744,-18.6751594543,4.79565048218,13.8888893127,7.0,2
1523727921439121007,6.90035796165,3.3348929882,18.5974731445,1.57819199562,13.8888893127,7.0,1,-3.11897373199,-20.0601787567,4.63362789154,13.8888893127,7.0,2
1523727921538352966,7.000426054,3.32461810112,19.9867649078,1.60430860519,13.8888893127,7.0,1,-3.22828602791,-21.4452037811,4.79559183121,13.8888893127,7.0,2
1523727921638606071,7.10045790672,3.27809000015,21.3746376038,1.56681418419,13.8888893127,7.0,1,-3.11287975311,-22.8290519714,4.63370704651,13.8888893127,7.0,2
1523727921737767934,7.20044088364,3.28361940384,22.7632274628,1.59803783894,13.8888893127,7.0,1,-3.2220249176,-24.2133560181,4.79558563232,13.8888893127,7.0,2
1523727921838087081,7.30042004585,3.24582576752,24.1502380371,1.55749082565,13.8888893127,7.0,1,-3.10672044754,-25.5960826874,4.63383197784,13.8888893127,7.0,2
1523727921938601016,7.40032196045,3.26434469223,25.5419902802,1.59488141537,13.8888893127,7.0,1,-3.21594953537,-26.9836654663,4.79609251022,13.8888893127,7.0,2
1523727922038670063,7.50053691864,3.23094916344,26.9282970428,1.55063688755,13.8888893127,7.0,1,-3.10001277924,-28.3655185699,4.63443422318,13.8888893127,7.0,2
1523727922138170003,7.60037994385,3.25896883011,28.3180141449,1.59485328197,13.8888893127,7.0,1,-3.20826029778,-29.7512969971,4.7964758873,13.8888893127,7.0,2
1523727922237878084,7.70045995712,3.22559189796,29.7051563263,1.54556524754,13.8888893127,7.0,1,-3.09172320366,-31.1339378357,4.63472080231,13.8888893127,7.0,2
1523727922337459087,7.80036306381,3.26060628891,31.0926017761,1.59705162048,13.8888893127,7.0,1,-3.19940972328,-32.5176429749,4.79651641846,13.8888893127,7.0,2
1523727922437642097,7.90029096603,3.22414970398,32.4808197021,1.54121911526,13.8888893127,7.0,1,-3.08272027969,-33.901424408,4.63462638855,13.8888893127,7.0,2
1523727922537986040,8.00027704239,3.26524591446,33.8698616028,1.6008657217,13.8888893127,7.0,1,-3.19067454338,-35.2868804932,4.79563045502,13.8888893127,7.0,2
1523727922637767076,8.10033202171,3.22350502014,35.2575950623,1.53674519062,13.8888893127,7.0,1,-3.0752389431,-36.6704330444,4.63377952576,13.8888893127,7.0,2
1523727922738687992,8.20029401779,3.27090454102,36.649066925,1.60597777367,13.8888893127,7.0,1,-3.18457269669,-38.0584106445,4.79427146912,13.8888893127,7.0,2
1523727922837595939,8.30053806305,3.22217750549,38.0335159302,1.53145241737,13.8888893127,7.0,1,-3.07126712799,-39.43907547,4.63277673721,13.8888893127,7.0,2
1523727922937439918,8.40027999878,3.27679228783,39.4209403992,1.61254632473,13.8888893127,7.0,1,-3.18169188499,-40.8231773376,4.79379987717,13.8888893127,7.0,2
1523727923038662910,8.50025200844,3.2187564373,40.8102149963,1.52459180355,13.8888893127,7.0,1,-3.06861615181,-42.2090568542,4.63170099258,13.8888893127,7.0,2
1523727923138526916,8.60036706924,3.28300595284,42.1997718811,1.62099099159,13.8888893127,7.0,1,-3.18073439598,-43.5955734253,4.79386425018,13.8888893127,7.0,2
1523727923238312959,8.70052194595,3.21339082718,43.5855102539,1.51516759396,13.8888893127,7.0,1,-3.06781363487,-44.9784584045,4.63211536407,13.8888893127,7.0,2
1523727923337909936,8.80042099953,3.29063773155,44.972694397,1.6326611042,13.8888893127,7.0,1,-3.17922067642,-46.3633155823,4.79352903366,13.8888893127,7.0,2
1523727923438843011,8.90045285225,3.20468330383,46.3603134155,1.50106108189,13.8888893127,7.0,1,-3.06653690338,-47.7490196228,4.63145494461,13.8888893127,7.0,2
1523727923537682056,9.00055289268,3.30127739906,47.743221283,1.6507576704,13.8888893127,7.0,1,-3.17861151695,-49.1307601929,4.79306268692,13.8888893127,7.0,2
1523727923638447999,9.10036492348,3.19032692909,49.1278114319,1.48882889748,13.8888893127,7.0,1,-3.06667470932,-50.5152702332,4.6311340332,13.8888893127,7.0,2
1523727923737950086,9.20037508011,3.30402708054,50.5118408203,1.65071833134,13.8888893127,7.0,1,-3.1793885231,-51.8993835449,4.79302358627,13.8888893127,7.0,2
1523727923837874889,9.30036091805,3.19318914413,51.8957138062,1.48887395859,13.8888893127,7.0,1,-3.06756448746,-53.2831764221,4.63117933273,13.8888893127,7.0,2
1523727923938586950,9.40031886101,3.30697035789,53.2814979553,1.6509680748,13.8888893127,7.0,1,-3.18035817146,-54.6690406799,4.79327344894,13.8888893127,7.0,2
1523727924037971019,9.50043106079,3.19571781158,54.6662025452,1.48902344704,13.8888893127,7.0,1,-3.06811881065,-56.0536651611,4.63132858276,13.8888893127,7.0,2
1523727924138669013,9.60045099258,3.30912280083,56.0499382019,1.65087580681,13.8888893127,7.0,1,-3.18053770065,-57.4374809265,4.79318094254,13.8888893127,7.0,2
1523727924239367961,9.70041394234,3.19798231125,57.4348449707,1.48890841007,13.8888893127,7.0,1,-3.06841039658,-58.8223075867,4.63121366501,13.8888893127,7.0,2
1523727924339227914,9.80044794083,3.3117454052,58.8209915161,1.65104413033,13.8888893127,7.0,1,-3.18118572235,-60.2085342407,4.79334926605,13.8888893127,7.0,2
1523727924437522888,9.90058588982,3.20072793961,60.2014503479,1.48959469795,13.8888893127,7.0,1,-3.06918478012,-61.5889167786,4.63189983368,13.8888893127,7.0,2
1523727924538506984,10.0002999306,3.31345057487,61.5865821838,1.65160274506,13.8888893127,7.0,1,-3.18092012405,-62.9741249084,4.79341840744,13.8888893127,7.0,2
1523727924638159036,10.100358963,3.20131015778,62.9713249207,1.48964488506,13.8888893127,7.0,1,-3.06847119331,-64.3588409424,4.63146018982,13.8888893127,7.0,2
1523727924738838911,10.200387001,3.31395411491,64.3563461304,1.65163969994,13.8888893127,7.0,1,-3.18080663681,-65.7438964844,4.7934551239,13.8888893127,7.0,2
