%time,field.t,field.cs1.x,field.cs1.y,field.cs1.theta,field.cs1.speed,field.cs1.acceleration,field.cs1.id,field.cs2.x,field.cs2.y,field.cs2.theta,field.cs2.speed,field.cs2.acceleration,field.cs2.id
1523124714234586954,0.0,-76.9419937134,-3.5,0.000284889538307,13.8888893127,7.0,1,-3.5,262.997558594,4.71267366409,13.8888893127,7.0,2
1523124714335041999,0.000175952911377,-75.547164917,-3.49960255623,0.0348220914602,13.8888893127,7.0,1,-3.49960255623,261.602722168,4.74721097946,13.8888893127,7.0,2
1523124714435317993,0.100604057312,-74.1610488892,-3.4513156414,0.0152304982767,13.8888893127,7.0,1,-3.45131587982,260.21661377,4.72761583328,13.8888893127,7.0,2
1523124714534620046,0.200464963913,-72.7735366821,-3.4301815033,0.0412718802691,13.8888893127,7.0,1,-3.43018698692,258.829101562,4.75366401672,13.8888893127,7.0,2
1523124714634490013,0.300377130508,-71.3869476318,-3.37292170525,0.0113102775067,13.8888893127,7.0,1,-3.37292289734,257.442504883,4.72369718552,13.8888893127,7.0,2
1523124714734555959,0.400296926498,-69.9975738525,-3.35720682144,0.0366358086467,13.8888893127,7.0,1,-3.35721063614,256.053131104,4.74902868271,13.8888893127,7.0,2
1523124714834562063,0.500338077545,-68.6096725464,-3.30633735657,0.00126234232448,13.8888893127,7.0,1,-3.30633544922,254.665237427,4.71364784241,13.8888893127,7.0,2
1523124714934485912,0.600333929062,-67.2211074829,-3.30458450317,0.030142808333,13.8888893127,7.0,1,-3.3045873642,253.276672363,4.7425365448,13.8888893127,7.0,2
1523124715034600019,0.700310945511,-65.8318862915,-3.26269698143,-0.00874392036349,13.8888893127,7.0,1,-3.26269316673,251.887451172,4.70364189148,13.8888893127,7.0,2
1523124715134391069,0.800379991531,-64.443939209,-3.27483320236,0.0256800930947,13.8888893127,7.0,1,-3.27483415604,250.49949646,4.73807430267,13.8888893127,7.0,2
1523124715235049009,0.900315999985,-63.0541915894,-3.23913645744,-0.0166754163802,13.8888893127,7.0,1,-3.23912978172,249.10975647,4.69571733475,13.8888893127,7.0,2
1523124715334419012,1.00041103363,-61.6667747498,-3.26227450371,0.0241631753743,13.8888893127,7.0,1,-3.26226258278,247.722335815,4.73656177521,13.8888893127,7.0,2
1523124715434719085,1.10031890869,-60.2775230408,-3.22869920731,-0.0226205457002,13.8888893127,7.0,1,-3.22867393494,246.333084106,4.68976736069,13.8888893127,7.0,2
1523124715534672975,1.20037412643,-58.8893280029,-3.26010632515,0.0252081435174,13.8888893127,7.0,1,-3.26008272171,244.944885254,4.73760318756,13.8888893127,7.0,2
1523124715634723901,1.30034995079,-57.5009078979,-3.2250995636,-0.027346432209,13.8888893127,7.0,1,-3.22506713867,243.556472778,4.68503665924,13.8888893127,7.0,2
1523124715734949111,1.40034794807,-56.1119537354,-3.2630918026,0.0281882639974,13.8888893127,7.0,1,-3.26306772232,242.167510986,4.74057769775,13.8888893127,7.0,2
1523124715835088014,1.5003900528,-54.7228507996,-3.22392511368,-0.0317146405578,13.8888893127,7.0,1,-3.22390031815,240.778411865,4.68066692352,13.8888893127,7.0,2
1523124715934638023,1.60044503212,-53.3363838196,-3.26791119576,0.0326387062669,13.8888893127,7.0,1,-3.2678964138,239.391952515,4.745033741,13.8888893127,7.0,2
1523124716034540891,1.70032095909,-51.9481239319,-3.22258400917,-0.036655344069,13.8888893127,7.0,1,-3.22256112099,238.003692627,4.67572116852,13.8888893127,7.0,2
1523124716134810924,1.80032896996,-50.5598335266,-3.2734951973,0.0383900664747,13.8888893127,7.0,1,-3.27348971367,236.615402222,4.75078392029,13.8888893127,7.0,2
1523124716234509944,1.90035295486,-49.1721076965,-3.22019386292,-0.0427227467299,13.8888893127,7.0,1,-3.22018194199,235.227676392,4.66965103149,13.8888893127,7.0,2
1523124716334914922,2.00034308434,-47.7847213745,-3.27950286865,0.0457671657205,13.8888893127,7.0,1,-3.27951192856,233.840286255,4.75816345215,13.8888893127,7.0,2
1523124716434545040,2.10032606125,-46.3969802856,-3.21594548225,-0.0507918223739,13.8888893127,7.0,1,-3.21594429016,232.452545166,4.66157960892,13.8888893127,7.0,2
1523124716534611940,2.20034813881,-45.0100479126,-3.2864511013,0.0556418970227,13.8888893127,7.0,1,-3.28647422791,231.065612793,4.76804924011,13.8888893127,7.0,2
1523124716634500980,2.30033612251,-43.6230201721,-3.20919442177,-0.0622713305056,13.8888893127,7.0,1,-3.20919251442,229.678588867,4.65009450912,13.8888893127,7.0,2
1523124716734561920,2.40035700798,-42.2376670837,-3.2955737114,0.0700392872095,13.8888893127,7.0,1,-3.29560375214,228.293228149,4.78245735168,13.8888893127,7.0,2
1523124716834551095,2.50029611588,-40.8522796631,-3.1983833313,-0.0804985538125,13.8888893127,7.0,1,-3.19837331772,226.907852173,4.63184785843,13.8888893127,7.0,2
1523124716934406042,2.60028910637,-39.4677772522,-3.31007504463,0.0814267992973,13.8888893127,7.0,1,-3.31012415886,225.523361206,4.79377317429,13.8888893127,7.0,2
1523124717034379959,2.70029711723,-38.0835762024,-3.19711399078,-0.0804757773876,13.8888893127,7.0,1,-3.19722247124,224.139144897,4.63187026978,13.8888893127,7.0,2
1523124717134607076,2.8002910614,-36.6989593506,-3.30878305435,0.081462316215,13.8888893127,7.0,1,-3.30895066261,222.75453186,4.79380846024,13.8888893127,7.0,2
1523124717234482049,2.90030694008,-35.3142356873,-3.19572973251,-0.0805020257831,13.8888893127,7.0,1,-3.19595646858,221.369812012,4.63184404373,13.8888893127,7.0,2
1523124717334534883,3.00033903122,-33.9298439026,-3.30741739273,0.0814101994038,13.8888893127,7.0,1,-3.30770325661,219.985427856,4.79375648499,13.8888893127,7.0,2
1523124717434699058,3.10033893585,-32.5448455811,-3.19441461563,-0.0805850252509,13.8888893127,7.0,1,-3.19475984573,218.600418091,4.63176107407,13.8888893127,7.0,2
1523124717534940958,3.20039010048,-31.1595954895,-3.30628752708,0.0814291164279,13.8888893127,7.0,1,-3.30669188499,217.215164185,4.79377555847,13.8888893127,7.0,2
1523124717634634971,3.30045294762,-29.7770233154,-3.19345641136,-0.0802827626467,13.8888893127,7.0,1,-3.19391965866,215.832595825,4.63206338882,13.8888893127,7.0,2
1523124717734744071,3.40032911301,-28.3919448853,-3.30489373207,0.0817070528865,13.8888893127,7.0,1,-3.3054163456,214.447525024,4.7940530777,13.8888893127,7.0,2
1523124717834925889,3.50037693977,-27.0078392029,-3.19155025482,-0.0801877975464,13.8888893127,7.0,1,-3.19213199615,213.063415527,4.63215827942,13.8888893127,7.0,2
1523124717934736013,3.60036611557,-25.6242465973,-3.30273580551,0.0816271454096,13.8888893127,7.0,1,-3.30337667465,211.679824829,4.79397344589,13.8888893127,7.0,2
1523124718034548997,3.70030593872,-24.2394561768,-3.18944764137,-0.0803468450904,13.8888893127,7.0,1,-3.19014763832,210.295028687,4.63199949265,13.8888893127,7.0,2
1523124718134780883,3.80034399033,-22.8545761108,-3.300958395,0.0816205888987,13.8888893127,7.0,1,-3.30171751976,208.91015625,4.79396677017,13.8888893127,7.0,2
1523124718234371900,3.90037798882,-21.4711017609,-3.18778681755,-0.0801993831992,13.8888893127,7.0,1,-3.18860530853,207.526672363,4.63214683533,13.8888893127,7.0,2
1523124718334537982,4.00032091141,-20.0867042542,-3.29905319214,0.0817097574472,13.8888893127,7.0,1,-3.29993081093,206.142288208,4.79405593872,13.8888893127,7.0,2
1523124718435020923,4.10031890869,-18.70063591,-3.18554520607,-0.0804147869349,13.8888893127,7.0,1,-3.18648195267,204.756210327,4.63193130493,13.8888893127,7.0,2
1523124718534442901,4.20044994354,-17.3177280426,-3.2969918251,0.0813229605556,13.8888893127,7.0,1,-3.29798769951,203.373306274,4.79366922379,13.8888893127,7.0,2
1523124718634872913,4.30034208298,-15.9330844879,-3.18413949013,-0.0806298032403,13.8888893127,7.0,1,-3.18519449234,201.98866272,4.63171625137,13.8888893127,7.0,2
1523124718734721899,4.40036702156,-14.5491380692,-3.29596924782,0.0812322422862,13.8888893127,7.0,1,-3.29708337784,200.604721069,4.79357862473,13.8888893127,7.0,2
1523124718834464073,4.50033593178,-13.1651315689,-3.18329524994,-0.0806448608637,13.8888893127,7.0,1,-3.18446874619,199.220703125,4.63170146942,13.8888893127,7.0,2
1523124718934740066,4.60031414032,-11.7807016373,-3.29518508911,0.0812739282846,13.8888893127,7.0,1,-3.29641771317,197.836273193,4.79362010956,13.8888893127,7.0,2
1523124719034368038,4.70031809807,-10.3962039948,-3.1824131012,-0.0806610733271,13.8888893127,7.0,1,-3.18370485306,196.451782227,4.63168525696,13.8888893127,7.0,2
1523124719134452104,4.8003320694,-9.01223087311,-3.29428863525,0.08120444417,13.8888893127,7.0,1,-3.2956392765,195.067810059,4.79355049133,13.8888893127,7.0,2
1523124719234925985,4.90030312538,-7.62703609467,-3.18155670166,0.102102771401,13.8888893127,7.0,1,-3.18296670914,193.682601929,4.63153505325,13.8888893127,7.0,2
1523124719334532022,5.00036692619,-6.24551677704,-3.04000759125,0.263999164104,13.8888893127,7.0,1,-3.29513049126,192.29838562,4.79343128204,13.8888893127,7.0,2
1523124719434503078,5.10035705566,-4.90521812439,-2.67771363258,0.345719665289,13.8888893127,7.0,1,-3.18273425102,190.914550781,4.63157606125,13.8888893127,7.0,2
1523124719534495115,5.20032191277,-3.59841513634,-2.20702242851,0.507643461227,13.8888893127,7.0,1,-3.29486036301,189.530090332,4.79349994659,13.8888893127,7.0,2
1523124719634674072,5.30032896996,-2.38477230072,-1.53191041946,0.579525530338,13.8888893127,7.0,1,-3.18233895302,188.145889282,4.63160037994,13.8888893127,7.0,2
1523124719734699964,5.40032100677,-1.22225141525,-0.77105152607,0.7414945364,13.8888893127,7.0,1,-3.29446268082,186.761032104,4.79356908798,13.8888893127,7.0,2
1523124719835628986,5.50035595894,-0.197242870927,0.167685896158,0.798274993896,13.8888893127,7.0,1,-3.18175268173,185.375701904,4.6315369606,13.8888893127,7.0,2
1523124719934817075,5.60043001175,0.771705627441,1.16191530228,0.96011775732,13.8888893127,7.0,1,-3.29387664795,183.991943359,4.79337978363,13.8888893127,7.0,2
1523124720034409999,5.70038700104,1.56733846664,2.29864811897,1.02767419815,13.8888893127,7.0,1,-3.1816239357,182.608978271,4.63162755966,13.8888893127,7.0,2
1523124720134872913,5.80028796196,2.28558492661,3.48842525482,1.18968868256,13.8888893127,7.0,1,-3.2937412262,181.223739624,4.79364204407,13.8888893127,7.0,2
1523124720234724998,5.90035104752,2.80243372917,4.77829790115,1.30727577209,13.8888893127,7.0,1,-3.18095850945,179.838760376,4.63165044785,13.8888893127,7.0,2
1523124720334976911,6.00040006638,3.16420245171,6.11920118332,1.42299151421,13.8888893127,7.0,1,-3.29297018051,178.454437256,4.79355812073,13.8888893127,7.0,2
1523124720434664011,6.10039710999,3.36870551109,7.49271249771,1.47830736637,13.8888893127,7.0,1,-3.18037819862,177.070358276,4.63167333603,13.8888893127,7.0,2
1523124720534512996,6.2003800869,3.49690198898,8.87483310699,1.54762136936,13.8888893127,7.0,1,-3.29229450226,175.686813354,4.79348802567,13.8888893127,7.0,2
1523124720635112047,6.30031991005,3.52913355827,10.2653770447,1.56042468548,13.8888893127,7.0,1,-3.17961573601,174.300476074,4.63133907318,13.8888893127,7.0,2
1523124720734568119,6.40046596527,3.54351639748,11.6520805359,1.60097193718,13.8888893127,7.0,1,-3.2918908596,172.918243408,4.79300546646,13.8888893127,7.0,2
1523124720834441900,6.50031399727,3.50160813332,13.0404748917,1.58808505535,13.8888893127,7.0,1,-3.18003344536,171.533737183,4.63107728958,13.8888893127,7.0,2
1523124720934395074,6.60032391548,3.47760605812,14.428645134,1.61497819424,13.8888893127,7.0,1,-3.29280042648,170.14994812,4.79293012619,13.8888893127,7.0,2
1523124721034383058,6.70028710365,3.41624236107,15.8166341782,1.58836781979,13.8888893127,7.0,1,-3.18102216721,168.765106201,4.63096427917,13.8888893127,7.0,2
1523124721134749889,6.80031991005,3.39183354378,17.2056007385,1.61172437668,13.8888893127,7.0,1,-3.29401087761,167.380523682,4.7929110527,13.8888893127,7.0,2
1523124721234824895,6.90034103394,3.33496952057,18.5941867828,1.57839739323,13.8888893127,7.0,1,-3.18222641945,165.995269775,4.63089847565,13.8888893127,7.0,2
1523124721334491014,7.0004029274,3.32441711426,19.9824542999,1.60401296616,13.8888893127,7.0,1,-3.29523515701,164.611572266,4.79274320602,13.8888893127,7.0,2
1523124721435446023,7.10036110878,3.27825927734,21.3715496063,1.56709468365,13.8888893127,7.0,1,-3.18367409706,163.226196289,4.63071727753,13.8888893127,7.0,2
1523124721535206079,7.20043110847,3.28340029716,22.760383606,1.59770548344,13.8888893127,7.0,1,-3.29697728157,161.84197998,4.79262447357,13.8888893127,7.0,2
1523124721634599924,7.30042791367,3.24607014656,24.1473121643,1.55781519413,13.8888893127,7.0,1,-3.18577528,160.459014893,4.63088226318,13.8888893127,7.0,2
1523124721734639883,7.40032291412,3.26410388947,25.5364742279,1.59456992149,13.8888893127,7.0,1,-3.29888558388,159.074356079,4.79284000397,13.8888893127,7.0,2
1523124721834669113,7.50035095215,3.23109817505,26.9245548248,1.55103290081,13.8888893127,7.0,1,-3.18730187416,157.690368652,4.6309762001,13.8888893127,7.0,2
1523124721934935092,7.60032105446,3.25855827332,28.3138103485,1.5944185257,13.8888893127,7.0,1,-3.30030226707,156.305450439,4.79296255112,13.8888893127,7.0,2
1523124722034735918,7.70036697388,3.22575139999,29.7023658752,1.54599881172,13.8888893127,7.0,1,-3.18851089478,154.921005249,4.63104391098,13.8888893127,7.0,2
1523124722134428977,7.80037093163,3.26017975807,31.0904693604,1.59653246403,13.8888893127,7.0,1,-3.30133652687,153.537063599,4.79291439056,13.8888893127,7.0,2
1523124722234606981,7.90034508705,3.22442269325,32.4795341492,1.5417624712,13.8888893127,7.0,1,-3.18956494331,152.152038574,4.63092756271,13.8888893127,7.0,2
1523124722334466934,8.00039100647,3.26472854614,33.8673820496,1.60026752949,13.8888893127,7.0,1,-3.3025431633,150.768218994,4.79278659821,13.8888893127,7.0,2
1523124722434474945,8.10035800934,3.22382974625,35.2547340393,1.53740942478,13.8888893127,7.0,1,-3.19107460976,149.384750366,4.63098287582,13.8888893127,7.0,2
1523124722534522056,8.20029091835,3.27020025253,36.6431007385,1.60525846481,13.8888893127,7.0,1,-3.30403399467,148.000198364,4.79292440414,13.8888893127,7.0,2
1523124722634824991,8.30030894279,3.22232294083,38.0318183899,1.5322521925,13.8888893127,7.0,1,-3.19224739075,146.615158081,4.63093566895,13.8888893127,7.0,2
1523124722734565973,8.40035605431,3.27584171295,39.4196357727,1.61156260967,13.8888893127,7.0,1,-3.3052482605,145.230926514,4.79284334183,13.8888893127,7.0,2
1523124722834503889,8.50035309792,3.21928119659,40.8063011169,1.52564334869,13.8888893127,7.0,1,-3.19371247292,143.847595215,4.63105583191,13.8888893127,7.0,2
1523124722934650897,8.60027599335,3.28201174736,42.1946487427,1.6196706295,13.8888893127,7.0,1,-3.30662155151,142.462417603,4.79307031631,13.8888893127,7.0,2
1523124723034857988,8.7003390789,3.21408319473,43.583404541,1.51657915115,13.8888893127,7.0,1,-3.19456243515,141.076522827,4.6309800148,13.8888893127,7.0,2
1523124723134928941,8.80044913292,3.28930854797,44.9695320129,1.63069617748,13.8888893127,7.0,1,-3.30744695663,139.692962646,4.79280805588,13.8888893127,7.0,2
1523124723234698057,8.9003970623,3.20624566078,46.3545684814,1.5033454895,13.8888893127,7.0,1,-3.1959836483,138.309921265,4.6310544014,13.8888893127,7.0,2
1523124723334543943,9.0002989769,3.29987859726,47.7406311035,1.64769554138,13.8888893127,7.0,1,-3.30885100365,136.925292969,4.79300546646,13.8888893127,7.0,2
1523124723434503078,9.10032296181,3.19312620163,49.1261100769,1.48570215702,13.8888893127,7.0,1,-3.19694876671,135.540222168,4.63101243973,13.8888893127,7.0,2
1523124723534526109,9.20037293434,3.31110882759,50.5092544556,1.64753067493,13.8888893127,7.0,1,-3.30978870392,134.156646729,4.79284095764,13.8888893127,7.0,2
1523124723634294986,9.30032110214,3.20467829704,51.8935317993,1.48567986488,13.8888893127,7.0,1,-3.19821286201,132.772766113,4.63099002838,13.8888893127,7.0,2
1523124723734482049,9.40028309822,3.32276344299,53.2775154114,1.64760673046,13.8888893127,7.0,1,-3.31115245819,131.38835144,4.79291677475,13.8888893127,7.0,2
1523124723835283994,9.50029206276,3.21605944633,54.6639709473,1.48549997807,13.8888893127,7.0,1,-3.19929504395,130.002304077,4.63081026077,13.8888893127,7.0,2
1523124723934890985,9.60041213036,3.33442664146,56.0483207703,1.64747202396,13.8888893127,7.0,1,-3.31251502037,128.617523193,4.79278230667,13.8888893127,7.0,2
1523124724034761905,9.70044898987,3.22814774513,57.4316902161,1.48572802544,13.8888893127,7.0,1,-3.20109438896,127.234565735,4.63103818893,13.8888893127,7.0,2
1523124724134711027,9.800344944,3.34616398811,58.8156547546,1.64765191078,13.8888893127,7.0,1,-3.31396484375,125.85017395,4.79296207428,13.8888893127,7.0,2
1523124724234436988,9.90035200119,3.23957538605,60.1997909546,1.48581564426,13.8888893127,7.0,1,-3.20223164558,124.466438293,4.63112592697,13.8888893127,7.0,2
1523124724334436893,10.0003049374,3.35747718811,61.5838470459,1.64774918556,13.8888893127,7.0,1,-3.31498765945,123.081954956,4.79305934906,13.8888893127,7.0,2
1523124724434640884,10.100317955,3.25065588951,62.9692497253,1.48576402664,13.8888893127,7.0,1,-3.20301675797,121.696960449,4.63107395172,13.8888893127,7.0,2
1523124724534568071,10.2003629208,3.36860704422,64.3530426025,1.64766693115,13.8888893127,7.0,1,-3.31582307816,120.312744141,4.79297685623,13.8888893127,7.0,2
1523124724634932041,10.3003571033,3.26200509071,65.7370758057,1.48584198952,13.8888893127,7.0,1,-3.20407652855,118.929107666,4.63115215302,13.8888893127,7.0,2
1523124724735873937,10.4003031254,3.38007926941,67.123588562,1.64806187153,13.8888893127,7.0,1,-3.31699562073,117.542167664,4.79337215424,13.8888893127,7.0,2
1523124724835104942,10.5004930496,3.27290821075,68.5078735352,1.48620283604,13.8888893127,7.0,1,-3.20467925072,116.158287048,4.63151311874,13.8888893127,7.0,2
1523124724934370040,10.6004600525,3.39008998871,69.8898010254,1.64788198471,13.8888893127,7.0,1,-3.31672286987,114.775932312,4.79319190979,13.8888893127,7.0,2
1523124725034416913,10.7003159523,3.28315067291,71.2743301392,1.4859970808,13.8888893127,7.0,1,-3.20463752747,113.391815186,4.63130712509,13.8888893127,7.0,2
1523124725134488105,10.8002989292,3.40077805519,72.6581344604,1.64789819717,13.8888893127,7.0,1,-3.31711983681,112.007583618,4.79320812225,13.8888893127,7.0,2
1523124725234321117,10.9002919197,3.29380249977,74.0428390503,1.48599207401,13.8888893127,7.0,1,-3.2049973011,110.623283386,4.63130235672,13.8888893127,7.0,2
1523124725334536075,11.0002880096,3.4114317894,75.4265899658,1.64788663387,13.8888893127,7.0,1,-3.31748199463,109.239112854,4.79319667816,13.8888893127,7.0,2
1523124725435436964,11.100276947,3.30430865288,76.8134155273,1.48663401604,13.8888893127,7.0,1,-3.20520401001,107.85269165,4.63104295731,13.8888893127,7.0,2
1523124725534694910,11.2004261017,3.42106628418,78.1974334717,1.64855122566,13.8888893127,7.0,1,-3.31806349754,106.468353271,4.79296016693,13.8888893127,7.0,2
1523124725634433984,11.3004291058,3.31331586838,79.580406189,1.48802959919,13.8888893127,7.0,1,-3.20641899109,105.08568573,4.63124847412,13.8888893127,7.0,2
1523124725734709024,11.4003050327,3.42816948891,80.9649124146,1.64998590946,13.8888893127,7.0,1,-3.31902098656,103.70098877,4.79320478439,13.8888893127,7.0,2
1523124725834471940,11.5003321171,3.31829810143,82.3494644165,1.48905801773,13.8888893127,7.0,1,-3.20689797401,102.316619873,4.63129091263,13.8888893127,7.0,2
1523124725934670925,11.6003329754,3.43195462227,83.7368545532,1.65133810043,13.8888893127,7.0,1,-3.31966614723,100.929153442,4.79357099533,13.8888893127,7.0,2
1523124726034976005,11.7005600929,3.32045674324,85.1182098389,1.48978030682,13.8888893127,7.0,1,-3.20728349686,99.5478744507,4.63201332092,13.8888893127,7.0,2
1523124726134597063,11.8003411293,3.43287730217,86.5028076172,1.65172338486,13.8888893127,7.0,1,-3.31881737709,98.1632003784,4.79395627975,13.8888893127,7.0,2
1523124726234775066,11.9003601074,3.32048201561,87.8886184692,1.48965716362,13.8888893127,7.0,1,-3.205534935,96.7774658203,4.63187217712,13.8888893127,7.0,2
1523124726334410905,12.0004661083,3.43285822868,89.2705612183,1.65129101276,13.8888893127,7.0,1,-3.317050457,95.3954544067,4.79350614548,13.8888893127,7.0,2
1523124726434679985,12.1002941132,3.32109022141,90.6560745239,1.48995292187,13.8888893127,7.0,1,-3.20442008972,94.010017395,4.63146305084,13.8888893127,7.0,2
1523124726534548997,12.2003750801,3.43319559097,92.0397491455,1.65178596973,13.8888893127,7.0,1,-3.31663990021,92.6263504028,4.79329586029,13.8888893127,7.0,2
1523124726634460926,12.3003261089,3.32086110115,93.4237365723,1.48991429806,13.8888893127,7.0,1,-3.2044198513,91.2423477173,4.63142442703,13.8888893127,7.0,2
1523124726734524965,12.4003009796,3.43310427666,94.8084411621,1.6518689394,13.8888893127,7.0,1,-3.31677746773,89.8576507568,4.79337882996,13.8888893127,7.0,2
1523124726834394931,12.5003271103,3.32068061829,96.1921081543,1.49003434181,13.8888893127,7.0,1,-3.20446825027,88.4739761353,4.63154411316,13.8888893127,7.0,2
1523124726934442996,12.6002790928,3.43276524544,97.5769271851,1.65200018883,13.8888893127,7.0,1,-3.31666755676,87.0891723633,4.79350996017,13.8888893127,7.0,2
1523124727034480094,12.7003121376,3.32008910179,98.96144104,1.4900636673,13.8888893127,7.0,1,-3.20410585403,85.7046432495,4.63157367706,13.8888893127,7.0,2
1523124727135310888,12.8003270626,3.43216538429,100.346664429,1.65207624435,13.8888893127,7.0,1,-3.31629681587,84.3194274902,4.79358625412,13.8888893127,7.0,2
1523124727234884023,12.9003889561,3.31938743591,101.731140137,1.49014437199,13.8888893127,7.0,1,-3.20363306999,82.9349517822,4.63165426254,13.8888893127,7.0,2
1523124727334496974,13.0004010201,3.43119215965,103.114387512,1.65192568302,13.8888893127,7.0,1,-3.31555223465,81.5517044067,4.79343557358,13.8888893127,7.0,2
1523124727434365034,13.1003201008,3.3187057972,104.497848511,1.49011385441,13.8888893127,7.0,1,-3.20318031311,80.1682357788,4.63162374496,13.8888893127,7.0,2
1523124727534821033,13.2002580166,3.4307384491,105.883399963,1.65216386318,13.8888893127,7.0,1,-3.31532764435,78.7826919556,4.79367399216,13.8888893127,7.0,2
1523124727634655952,13.3003430367,3.31783795357,107.267875671,1.49023044109,13.8888893127,7.0,1,-3.20254158974,77.3982086182,4.63174057007,13.8888893127,7.0,2
1523124727734539031,13.4003560543,3.42953133583,108.651229858,1.6520229578,13.8888893127,7.0,1,-3.31434941292,76.0148620605,4.79353284836,13.8888893127,7.0,2
1523124727836077928,13.5002820492,3.31660604477,110.038421631,1.48977375031,13.8888893127,7.0,1,-3.20153880119,74.6276626587,4.63128376007,13.8888893127,7.0,2
1523124727934572935,13.6004900932,3.42890977859,111.421470642,1.65153539181,13.8888893127,7.0,1,-3.31395673752,73.2446289062,4.79304552078,13.8888893127,7.0,2
1523124728034279108,13.7003970146,3.3171043396,112.803230286,1.48992741108,13.8888893127,7.0,1,-3.20226573944,71.8628540039,4.63143730164,13.8888893127,7.0,2
1523124728134502887,13.8002090454,3.42941236496,114.188964844,1.65200173855,13.8888893127,7.0,1,-3.31468820572,70.4771270752,4.79351186752,13.8888893127,7.0,2
1523124728234678983,13.9003090858,3.31671929359,115.573661804,1.49004399776,13.8888893127,7.0,1,-3.20210981369,69.0924224854,4.63155412674,13.8888893127,7.0,2
1523124728334480047,14.0003371239,3.42873311043,116.957771301,1.65192687511,13.8888893127,7.0,1,-3.31423807144,67.7083206177,4.79343700409,13.8888893127,7.0,2
1523124728434681892,14.1003189087,3.3161315918,118.342636108,1.48995137215,13.8888893127,7.0,1,-3.20175099373,66.3234481812,4.63146114349,13.8888893127,7.0,2
1523124728534499883,14.200357914,3.42823123932,119.726211548,1.65177321434,13.8888893127,7.0,1,-3.31396508217,64.9398803711,4.79328298569,13.8888893127,7.0,2
1523124728635648012,14.3003020287,3.31556034088,121.114570618,1.4893912077,13.8888893127,7.0,1,-3.20140910149,63.5515174866,4.63090133667,13.8888893127,7.0,2
1523124728734471082,14.4005920887,3.42820215225,122.495231628,1.52888536453,13.8888893127,7.0,1,-3.31416511536,62.1708679199,4.79238891602,13.8888893127,7.0,2
1523124728834357023,14.5003299713,3.48637676239,123.882469177,1.52888536453,13.8888893127,7.0,1,-3.20320653915,60.7868461609,4.63052654266,13.8888893127,7.0,2
1523124728934561967,14.6002991199,3.54458618164,125.27053833,1.52888536453,13.8888893127,7.0,1,-3.31681013107,59.4022064209,4.7924861908,13.8888893127,7.0,2
1523124729034544944,14.7003281116,3.60278630257,126.65839386,1.52888536453,13.8888893127,7.0,1,-3.20566868782,58.0175895691,4.63055276871,13.8888893127,7.0,2
1523124729134612083,14.8003411293,3.66098928452,128.046310425,1.52888536453,13.8888893127,7.0,1,-3.31922364235,56.6331062317,4.79249382019,13.8888893127,7.0,2
1523124729234440088,14.9003589153,3.71914935112,129.433197021,1.52888536453,13.8888893127,7.0,1,-3.20814824104,55.2494430542,4.630671978,13.8888893127,7.0,2
1523124729334697008,15.00030303,3.7773680687,130.821487427,1.52888536453,13.8888893127,7.0,1,-3.32156896591,53.864566803,4.7926568985,13.8888893127,7.0,2
1523124729434663057,15.1003479958,3.83565974236,132.211517334,1.52888536453,13.8888893127,7.0,1,-3.21001577377,52.4777946472,4.6304693222,13.8888893127,7.0,2
1523124729534512042,15.2005181313,3.89372944832,133.5962677,1.52888536453,13.8888893127,7.0,1,-3.32342600822,51.0964851379,4.79203987122,13.8888893127,7.0,2
1523124729634397983,15.3003070354,3.95192956924,134.984115601,1.52888536453,13.8888893127,7.0,1,-3.21290254593,49.7118186951,4.63010644913,13.8888893127,7.0,2
1523124729734450101,15.4003200531,4.01009750366,136.371200562,1.52888536453,13.8888893127,7.0,1,-3.32700705528,48.328212738,4.79195070267,13.8888893127,7.0,2
1523124729834615945,15.5002779961,4.06831407547,137.759429932,1.52888536453,13.8888893127,7.0,1,-3.21657633781,46.9431495667,4.62997198105,13.8888893127,7.0,2
1523124729934487104,15.6003189087,4.12650156021,139.146987915,1.52888536453,13.8888893127,7.0,1,-3.3309044838,45.55909729,4.79187011719,13.8888893127,7.0,2
1523124730034626960,15.7003099918,4.18469953537,140.534790039,1.52888536453,13.8888893127,7.0,1,-3.2206196785,44.17445755,4.62994146347,13.8888893127,7.0,2
1523124730134654045,15.80031991,4.24289560318,141.922546387,1.52888536453,13.8888893127,7.0,1,-3.33500742912,42.7902030945,4.7918639183,13.8888893127,7.0,2
1523124730234441995,15.9003260136,4.30108070374,143.310028076,1.52888536453,13.8888893127,7.0,1,-3.22475624084,41.4058761597,4.62997245789,13.8888893127,7.0,2
1523124730334769010,16.0003130436,4.35927867889,144.6978302,1.52888536453,13.8888893127,7.0,1,-3.33910441399,40.0215759277,4.79189920425,13.8888893127,7.0,2
1523124730435441017,16.1003220081,4.41756010056,146.087615967,1.52888536453,13.8888893127,7.0,1,-3.22862100601,38.6349601746,4.62973928452,13.8888893127,7.0,2
1523124730534868955,16.2004749775,4.47568082809,147.473571777,1.52888536453,13.8888893127,7.0,1,-3.34313988686,37.2525253296,4.79145097733,13.8888893127,7.0,2
1523124730634427070,16.3003511429,4.53387355804,148.861251831,1.52888536453,13.8888893127,7.0,1,-3.2334446907,35.8679618835,4.62953710556,13.8888893127,7.0,2
1523124730734781980,16.4003520012,4.59205722809,150.248703003,1.52888536453,13.8888893127,7.0,1,-3.34836649895,34.4840621948,4.79142379761,13.8888893127,7.0,2
1523124730834547042,16.5003359318,4.65026569366,151.636749268,1.52888536453,13.8888893127,7.0,1,-3.23867964745,33.0991172791,4.62946605682,13.8888893127,7.0,2
1523124730934612989,16.6003639698,4.70843458176,153.023849487,1.52888536453,13.8888893127,7.0,1,-3.35367155075,31.7155685425,4.79131221771,13.8888893127,7.0,2
1523124731035665988,16.7003231049,4.76667070389,154.412567139,1.52888536453,13.8888893127,7.0,1,-3.24408769608,30.3299636841,4.62927818298,13.8888893127,7.0,2
1523124731135247945,16.8003981113,4.82489442825,155.800964355,1.52888536453,13.8888893127,7.0,1,-3.35944724083,28.9451389313,4.79127597809,13.8888893127,7.0,2
1523124731234452009,16.9004509449,4.88302326202,157.187133789,1.52888536453,13.8888893127,7.0,1,-3.25011444092,27.5620746613,4.62953996658,13.8888893127,7.0,2
1523124731334460020,17.0003421307,4.94120836258,158.574615479,1.52888536453,13.8888893127,7.0,1,-3.36503577232,26.1781330109,4.79143095016,13.8888893127,7.0,2
1523124731434475898,17.1003289223,4.99939966202,159.962249756,1.52888536453,13.8888893127,7.0,1,-3.25537157059,24.7936077118,4.62952184677,13.8888893127,7.0,2
1523124731534621000,17.2003269196,5.05757522583,161.349517822,1.52888536453,13.8888893127,7.0,1,-3.37029981613,23.4098854065,4.79138755798,13.8888893127,7.0,2
1523124731634514093,17.3002979755,5.11577033997,162.737243652,1.52888536453,13.8888893127,7.0,1,-3.26068949699,22.0252742767,4.62946844101,13.8888893127,7.0,2
1523124731734586954,17.4003019333,5.1739692688,164.125076294,1.52888536453,13.8888893127,7.0,1,-3.37573766708,20.641002655,4.79139900208,13.8888893127,7.0,2
1523124731834877967,17.5003130436,5.2322716713,165.515365601,1.52888536453,13.8888893127,7.0,1,-3.26590847969,19.2538318634,4.62918043137,13.8888893127,7.0,2
1523124731934536933,17.6005020142,5.29035902023,166.900512695,1.52888536453,13.8888893127,7.0,1,-3.38113331795,17.872253418,4.79079961777,13.8888893127,7.0,2
1523124732035324096,17.7003209591,5.34857416153,168.288726807,1.52888536453,13.8888893127,7.0,1,-3.27229857445,16.4870910645,4.62882423401,13.8888893127,7.0,2
1523124732134497880,17.8003599644,5.40675878525,169.676208496,1.52888536453,13.8888893127,7.0,1,-3.38820934296,15.1032419205,4.79071426392,13.8888893127,7.0,2
1523124732234492063,17.9003460407,5.46493053436,171.063369751,1.52888536453,13.8888893127,7.0,1,-3.27957487106,13.7191114426,4.6288599968,13.8888893127,7.0,2
1523124732334619045,18.0003099442,5.52313947678,172.451431274,1.52888536453,13.8888893127,7.0,1,-3.3954846859,12.3346767426,4.79081821442,13.8888893127,7.0,2
1523124732434561967,18.1003379822,5.5813293457,173.839050293,1.52888536453,13.8888893127,7.0,1,-3.28667140007,10.9501113892,4.62891197205,13.8888893127,7.0,2
1523124732534495115,18.2003340721,5.63951873779,175.226638794,1.52888536453,13.8888893127,7.0,1,-3.40247011185,9.56614208221,4.79081439972,13.8888893127,7.0,2
1523124732635544061,18.3003280163,5.69777679443,176.615875244,1.52888536453,13.8888893127,7.0,1,-3.29353451729,8.17995929718,4.62871932983,13.8888893127,7.0,2
1523124732735219001,18.4004409313,5.75598430634,178.003890991,1.52888536453,13.8888893127,7.0,1,-3.40963602066,6.79558038712,4.79067230225,13.8888893127,7.0,2
1523124732834577083,18.5004661083,5.81414604187,179.390823364,1.52888536453,13.8888893127,7.0,1,-3.30107760429,5.41167926788,4.62884569168,13.8888893127,7.0,2
1523124732934798955,18.600413084,5.87229633331,180.777496338,1.52888536453,13.8888893127,7.0,1,-3.41689109802,4.02863264084,4.79064178467,13.8888893127,7.0,2
1523124733034997940,18.7003409863,5.93054103851,182.166397095,1.52888536453,13.8888893127,7.0,1,-3.30822110176,2.64276051521,4.62909269333,13.8888893127,7.0,2
1523124733134649991,18.8004300594,5.988697052,183.553207397,1.52888536453,13.8888893127,7.0,1,-3.42370462418,1.25954627991,4.79090499878,13.8888893127,7.0,2
1523124733234606981,18.9003679752,6.04687070847,184.940414429,1.52888536453,13.8888893127,7.0,1,-3.31480288506,-0.124606817961,4.63008546829,13.8888893127,7.0,2
1523124733334676980,19.0003349781,6.10506677628,186.328170776,1.52888536453,13.8888893127,7.0,1,-3.42899107933,-1.5088788271,4.79200792313,13.8888893127,7.0,2
1523124733434880018,19.1003410816,6.16334867477,187.717971802,1.52888536453,13.8888893127,7.0,1,-3.31835627556,-2.89549875259,4.63078975677,13.8888893127,7.0,2
1523124733534847974,19.2004950047,6.22152853012,189.105331421,1.52888536453,13.8888893127,7.0,1,-3.43153762817,-4.27946138382,4.79266643524,13.8888893127,7.0,2
1523124733635373115,19.3004729748,6.27972745895,190.493164062,1.52888536453,13.8888893127,7.0,1,-3.3201482296,-5.66403102875,4.63124084473,13.8888893127,7.0,2
1523124733734404087,19.4004840851,6.33785581589,191.87928772,1.52888536453,13.8888893127,7.0,1,-3.43260574341,-7.04681348801,4.79297351837,13.8888893127,7.0,2
1523124733834517002,19.5003731251,6.39601755142,193.266220093,1.52888536453,13.8888893127,7.0,1,-3.32086324692,-8.43046092987,4.63140726089,13.8888893127,7.0,2
1523124733935054063,19.6003201008,6.45422267914,194.654190063,1.52888536453,13.8888893127,7.0,1,-3.43323922157,-9.81510066986,4.7933549881,13.8888893127,7.0,2
1523124734034954071,19.7003419399,6.51241779327,196.041915894,1.52888536453,13.8888893127,7.0,1,-3.32090425491,-11.1994981766,4.63143587112,13.8888893127,7.0,2
1523124734134445905,19.8003461361,6.57062244415,197.429885864,1.52888536453,13.8888893127,7.0,1,-3.43323969841,-12.5841274261,4.79338216782,13.8888893127,7.0,2
1523124734234416961,19.9003670216,6.6287817955,198.816757202,1.52888536453,13.8888893127,7.0,1,-3.320936203,-13.9676733017,4.63156223297,13.8888893127,7.0,2
1523124734335253953,20.0003099442,6.68706035614,200.206481934,1.52888536453,13.8888893127,7.0,1,-3.43323945999,-15.3540792465,4.79371452332,13.8888893127,7.0,2
1523124734435332059,20.1004581451,6.74535751343,201.596633911,1.52888536453,13.8888893127,7.0,1,-3.32020998001,-16.7408542633,4.63151264191,13.8888893127,7.0,2
1523124734534406900,20.2006371021,6.80334281921,202.979370117,1.52888536453,13.8888893127,7.0,1,-3.4320166111,-18.1202754974,4.7928481102,13.8888893127,7.0,2
1523124734634486913,20.3002810478,6.86155509949,204.367507935,1.52888536453,13.8888893127,7.0,1,-3.32034993172,-19.5051422119,4.6315202713,13.8888893127,7.0,2
1523124734734493017,20.4003150463,6.91977548599,205.755844116,1.52888536453,13.8888893127,7.0,1,-3.43259954453,-20.8901557922,4.79351043701,13.8888893127,7.0,2
1523124734834626913,20.5003631115,6.97796630859,207.143463135,1.52888536453,13.8888893127,7.0,1,-3.32005810738,-22.274433136,4.63160324097,13.8888893127,7.0,2
1523124734934458017,20.6003599167,7.03613519669,208.530563354,1.52888536453,13.8888893127,7.0,1,-3.43209290504,-23.6582279205,4.79344940186,13.8888893127,7.0,2
1523124735034818887,20.7003190517,7.09434175491,209.918579102,1.52888536453,13.8888893127,7.0,1,-3.31960535049,-25.0428886414,4.63149785995,13.8888893127,7.0,2
1523124735135782957,20.8003430367,7.15261507034,211.308166504,1.52888536453,13.8888893127,7.0,1,-3.43198728561,-26.4291572571,4.79363536835,13.8888893127,7.0,2
1523124735234595060,20.9004819393,7.2107963562,212.695571899,1.52888536453,13.8888893127,7.0,1,-3.31929063797,-27.8132038116,4.63175344467,13.8888893127,7.0,2
1523124735334548950,21.0004630089,7.26893854141,214.082046509,1.52888536453,13.8888893127,7.0,1,-3.43106555939,-29.1963768005,4.79352521896,13.8888893127,7.0,2
1523124735434493064,21.1003761292,7.32710170746,215.469009399,1.52888536453,13.8888893127,7.0,1,-3.31855630875,-30.5800018311,4.63169431686,13.8888893127,7.0,2
1523124735534451007,21.2003259659,7.38528871536,216.856552124,1.52888536453,13.8888893127,7.0,1,-3.4304997921,-31.9642353058,4.79359054565,13.8888893127,7.0,2
1523124735634427070,21.3003160954,7.44345569611,218.243606567,1.52888536453,13.8888893127,7.0,1,-3.31789302826,-33.3479385376,4.63174915314,13.8888893127,7.0,2
1523124735734441995,21.400272131,7.5017080307,219.632705688,1.52888536453,13.8888893127,7.0,1,-3.42988634109,-34.7337379456,4.7938284874,13.8888893127,7.0,2
1523124735834624052,21.5003750324,7.55983924866,221.01890564,1.52888536453,13.8888893127,7.0,1,-3.3170208931,-36.116558075,4.63208770752,13.8888893127,7.0,2
1523124735934945106,21.6002690792,7.61808109283,222.407745361,1.52888536453,13.8888893127,7.0,1,-3.42852544785,-37.5021476746,4.79413747787,13.8888893127,7.0,2
1523124736034668922,21.7003540993,7.67633247375,223.796813965,1.52888536453,13.8888893127,7.0,1,-3.31499767303,-38.8877983093,4.63206148148,13.8888893127,7.0,2
1523124736135050058,21.8004550934,7.73445510864,225.182830811,1.52888536453,13.8888893127,7.0,1,-3.42630958557,-40.2705459595,4.79377985001,13.8888893127,7.0,2
1523124736234570026,21.9003350735,7.79266786575,226.570983887,1.52888536453,13.8888893127,7.0,1,-3.313352108,-41.6553192139,4.63181066513,13.8888893127,7.0,2
1523124736334628105,22.0003700256,7.85083913803,227.958129883,1.52888536453,13.8888893127,7.0,1,-3.42510390282,-43.039188385,4.7936630249,13.8888893127,7.0,2
1523124736434499979,22.1003329754,7.90903091431,229.345794678,1.52888536453,13.8888893127,7.0,1,-3.3123486042,-44.4234809875,4.631752491,13.8888893127,7.0,2
1523124736534593105,22.2003319263,7.96721839905,230.733337402,1.52888536453,13.8888893127,7.0,1,-3.42421221733,-45.8077316284,4.79365062714,13.8888893127,7.0,2
1523124736634587049,22.3003230095,8.0254573822,232.122116089,1.52888536453,13.8888893127,7.0,1,-3.31138324738,-47.193145752,4.63160848618,13.8888893127,7.0,2
1523124736734560012,22.4004030228,8.08359909058,233.508560181,1.52888536453,13.8888893127,7.0,1,-3.42335772514,-48.5762863159,4.79337835312,13.8888893127,7.0,2
1523124736835190057,22.5003149509,8.14181804657,234.896865845,1.52888536453,13.8888893127,7.0,1,-3.31094360352,-49.9612617493,4.63139104843,13.8888893127,7.0,2
1523124736934900045,22.6003611088,8.20003795624,236.285186768,1.52888536453,13.8888893127,7.0,1,-3.42337036133,-51.346244812,4.79337930679,13.8888893127,7.0,2
1523124737034478902,22.7004079819,8.25821399689,237.672454834,1.52888536453,13.8888893127,7.0,1,-3.31103897095,-52.7301826477,4.63151407242,13.8888893127,7.0,2
1523124737134593009,22.8003790379,8.31637001038,239.059265137,1.52888536453,13.8888893127,7.0,1,-3.42317342758,-54.1136703491,4.79332590103,13.8888893127,7.0,2
1523124737234682083,22.9003169537,8.37458229065,240.447387695,1.52888536453,13.8888893127,7.0,1,-3.31084680557,-55.4984703064,4.63136005402,13.8888893127,7.0,2
1523124737334711074,23.0003499985,8.43277454376,241.835067749,1.52888536453,13.8888893127,7.0,1,-3.42326426506,-56.8828048706,4.79327249527,13.8888893127,7.0,2
1523124737434947013,23.1003501415,8.49099826813,243.223480225,1.52888536453,13.8888893127,7.0,1,-3.31098818779,-58.2678985596,4.63127279282,13.8888893127,7.0,2
1523124737534950971,23.2004039288,8.54915332794,244.610244751,1.52888536453,13.8888893127,7.0,1,-3.42345261574,-59.6513214111,4.7930803299,13.8888893127,7.0,2
1523124737635099887,23.3003389835,8.60739994049,245.999191284,1.52888536453,13.8888893127,7.0,1,-3.31139993668,-61.0369606018,4.63101911545,13.8888893127,7.0,2
1523124737734457969,23.4004309177,8.66554737091,247.385803223,1.52888536453,13.8888893127,7.0,1,-3.42420244217,-62.4201927185,4.7928071022,13.8888893127,7.0,2
1523124737834407091,23.5003540516,8.72371196747,248.772796631,1.52888536453,13.8888893127,7.0,1,-3.3126847744,-63.8039283752,4.63097238541,13.8888893127,7.0,2
1523124737934396982,23.6003060341,8.78188705444,250.160049438,1.52888536453,13.8888893127,7.0,1,-3.42560482025,-65.1878051758,4.79283618927,13.8888893127,7.0,2
1523124738034635066,23.7002761364,8.84008979797,251.547973633,1.52888536453,13.8888893127,7.0,1,-3.31397294998,-66.5724487305,4.63089513779,13.8888893127,7.0,2
1523124738134552001,23.8002939224,8.89830970764,252.936279297,1.52888536453,13.8888893127,7.0,1,-3.42708587646,-67.9573669434,4.79288244247,13.8888893127,7.0,2
1523124738234941959,23.9003400803,8.95653915405,254.324829102,1.52888536453,13.8888893127,7.0,1,-3.31533885002,-69.3426437378,4.63086605072,13.8888893127,7.0,2
1523124738335412979,24.0004041195,9.0147600174,255.713180542,1.52888536453,13.8888893127,7.0,1,-3.42849516869,-70.7276000977,4.79285812378,13.8888893127,7.0,2
1523124738434431076,24.1004531384,9.07291507721,257.099945068,1.52888536453,13.8888893127,7.0,1,-3.3169260025,-72.1110916138,4.63105106354,13.8888893127,7.0,2
1523124738534307003,24.2003879547,9.13104915619,258.486236572,1.52888536453,13.8888893127,7.0,1,-3.42965817451,-73.4940032959,4.79280138016,13.8888893127,7.0,2
1523124738635037899,24.300287962,9.18925476074,259.874206543,1.52888536453,13.8888893127,7.0,1,-3.31806969643,-74.8787078857,4.63089513779,13.8888893127,7.0,2
1523124738734695911,24.4003100395,9.24750804901,261.263336182,1.52888536453,13.8888893127,7.0,1,-3.4312479496,-76.2644271851,4.79297637939,13.8888893127,7.0,2
1523124738834573030,24.5004141331,9.30567169189,262.650299072,1.52888536453,13.8888893127,7.0,1,-3.31949830055,-77.6481170654,4.63114500046,13.8888893127,7.0,2
1523124738934695005,24.6003639698,9.36384868622,264.037597656,1.52888536453,13.8888893127,7.0,1,-3.43218398094,-79.0320663452,4.79301548004,13.8888893127,7.0,2
1523124739035540103,24.7003381252,9.42210674286,265.426818848,1.52888536453,13.8888893127,7.0,1,-3.32019877434,-80.4179916382,4.63136768341,13.8888893127,7.0,2
1523124739134684085,24.8004500866,9.48024749756,266.813262939,1.52888536453,13.8888893127,7.0,1,-3.43250489235,-81.8010940552,4.79313611984,13.8888893127,7.0,2
1523124739234827041,24.9003610611,9.53849601746,268.202270508,1.52888536453,13.8888893127,7.0,1,-3.32036924362,-83.1867980957,4.63149881363,13.8888893127,7.0,2
1523124739334321022,25.0004580021,9.5965795517,269.587341309,1.52888536453,13.8888893127,7.0,1,-3.43238329887,-84.5685424805,4.79310703278,13.8888893127,7.0,2
1523124739434350013,25.1002700329,9.65477657318,270.975097656,1.52888536453,13.8888893127,7.0,1,-3.32038903236,-85.9530105591,4.63138103485,13.8888893127,7.0,2
1523124739534935951,25.2002770901,9.71301078796,272.363769531,1.52888536453,13.8888893127,7.0,1,-3.43285775185,-87.3383407593,4.79340982437,13.8888893127,7.0,2
1523124739634658098,25.3003489971,9.77119922638,273.751342773,1.52888536453,13.8888893127,7.0,1,-3.32045841217,-88.7225875854,4.6315073967,13.8888893127,7.0,2
1523124739734620094,25.4003429413,9.8293838501,275.138824463,1.52888536453,13.8888893127,7.0,1,-3.43265485764,-90.1067276001,4.79339551926,13.8888893127,7.0,2
1523124739835858106,25.500328064,9.88778400421,276.531433105,1.52888536453,13.8888893127,7.0,1,-3.31986737251,-91.4960098267,4.63154506683,13.8888893127,7.0,2
1523124739934931039,25.6006851196,9.94576454163,277.9140625,1.52888536453,13.8888893127,7.0,1,-3.431620121,-92.8753204346,4.79286766052,13.8888893127,7.0,2
1523124740034632921,25.7003209591,10.0039730072,279.302093506,1.52888536453,13.8888893127,7.0,1,-3.31993460655,-94.2600860596,4.63143920898,13.8888893127,7.0,2
1523124740134506940,25.8003480434,10.0621328354,280.688995361,1.52888536453,13.8888893127,7.0,1,-3.43217945099,-95.6436538696,4.79326057434,13.8888893127,7.0,2
1523124740234420061,25.9002919197,10.120344162,282.07711792,1.52888536453,13.8888893127,7.0,1,-3.3199441433,-97.0284423828,4.63129615784,13.8888893127,7.0,2
1523124740334481954,26.0003240108,10.1785440445,283.464935303,1.52888536453,13.8888893127,7.0,1,-3.4324631691,-98.4129333496,4.79322814941,13.8888893127,7.0,2
1523124740434663057,26.1003360748,10.2367506027,284.852966309,1.52888536453,13.8888893127,7.0,1,-3.32028079033,-99.7976303101,4.631275177,13.8888893127,7.0,2
1523124740534826040,26.2003610134,10.2949352264,286.240447998,1.52888536453,13.8888893127,7.0,1,-3.43279933929,-101.181762695,4.79316520691,13.8888893127,7.0,2
1523124740634466886,26.3003470898,10.3531179428,287.627868652,1.52888536453,13.8888893127,7.0,1,-3.32075119019,-102.565887451,4.63128042221,13.8888893127,7.0,2
1523124740734849929,26.4003300667,10.4113035202,289.015380859,1.52888536453,13.8888893127,7.0,1,-3.43326497078,-103.950042725,4.79317331314,13.8888893127,7.0,2
1523124740834973096,26.5003180504,10.4695529938,290.404388428,1.52888536453,13.8888893127,7.0,1,-3.32107686996,-105.335762024,4.63137149811,13.8888893127,7.0,2
1523124740934513092,26.6004159451,10.5277442932,291.792053223,1.52888536453,13.8888893127,7.0,1,-3.43347597122,-106.720062256,4.7932806015,13.8888893127,7.0,2
1523124741034358024,26.7004139423,10.5858621597,293.17791748,1.52888536453,13.8888893127,7.0,1,-3.32139372826,-108.102630615,4.63157653809,13.8888893127,7.0,2
1523124741134380102,26.8002851009,10.6440677643,294.565917969,1.52888536453,13.8888893127,7.0,1,-3.43353652954,-109.487304688,4.79352617264,13.8888893127,7.0,2
1523124741234591007,26.9003081322,10.7022752762,295.953918457,1.52888536453,13.8888893127,7.0,1,-3.32094120979,-110.87197113,4.63157367706,13.8888893127,7.0,2
1523124741334984064,27.0003330708,10.7605285645,297.343048096,1.52888536453,13.8888893127,7.0,1,-3.4331805706,-112.257781982,4.79365587234,13.8888893127,7.0,2
1523124741434540987,27.100438118,10.8186950684,298.730102539,1.52888536453,13.8888893127,7.0,1,-3.32048344612,-113.641471863,4.6318154335,13.8888893127,7.0,2
1523124741535262107,27.2003939152,10.8768424988,300.116699219,1.52888536453,13.8888893127,7.0,1,-3.43218231201,-115.024765015,4.7936000824,13.8888893127,7.0,2
1523124741634561061,27.3003151417,10.9350700378,301.505187988,1.52888536453,13.8888893127,7.0,1,-3.31944417953,-116.409919739,4.63158893585,13.8888893127,7.0,2
1523124741734610080,27.4003760815,10.9932260513,302.891998291,1.52888536453,13.8888893127,7.0,1,-3.43147373199,-117.793403625,4.79339933395,13.8888893127,7.0,2
1523124741834539890,27.5003130436,11.0514297485,304.279937744,1.52888536453,13.8888893127,7.0,1,-3.31906080246,-119.178001404,4.63145637512,13.8888893127,7.0,2
1523124741934899091,27.6003320217,11.1096353531,305.667907715,1.52888536453,13.8888893127,7.0,1,-3.43137049675,-120.562660217,4.79340600967,13.8888893127,7.0,2
1523124742034605026,27.7003550529,11.1678104401,307.055175781,1.52888536453,13.8888893127,7.0,1,-3.31900382042,-121.946578979,4.70963096619,13.8888893127,7.0,2
1523124742134366035,27.8003249168,11.2260093689,308.442993164,1.52888536453,13.8888893127,7.0,1,-3.32283520699,-123.335617065,4.70963096619,13.8888893127,7.0,2
